{
    "places": [
        {
            "name": "Lekáreň Miliana",
            "address": "Ondavská 10/C, 04011 Košice",
            "latitude": "48.7192447",
            "longitude": "21.2338158",
            "category": "pharmacy"
        },
        {
            "name": "LEKÁREŇ PRI DATASE",
            "address": "Toryská 275/1, 04011 Košice",
            "latitude": "48.7149692",
            "longitude": "21.237249",
            "category": "pharmacy"
        },
        {
            "name": "LEKÁREŇ KAMILKA",
            "address": "Brigádnická 247/2, 04011 Košice",
            "latitude": "48.7127039",
            "longitude": "21.2375494",
            "category": "pharmacy"
        },
        {
            "name": "LEKÁREŇ TERASA",
            "address": "Trieda SNP 339/88, 04011 Košice",
            "latitude": "48.7070118",
            "longitude": "21.2334724",
            "category": "pharmacy"
        },
        {
            "name": "LEKÁREŇ ECHINACEA",
            "address": "Trieda SNP 457/1, 04011 Košice",
            "latitude": "48.7192447",
            "longitude": "21.2338158",
            "category": "pharmacy"
        },
        {
            "name": "LEKÁREŇ TORYSKÁ",
            "address": "Toryská 1, 04011 Košice",
            "latitude": "48.7149692",
            "longitude": "21.237249",
            "category": "pharmacy"
        },
        {
            "name": "LEKÁREŇ AESCULAP",
            "address": "Toryská, 04011 Košice",
            "latitude": "48.7149692",
            "longitude": "21.237249",
            "category": "pharmacy"
        },
        {
            "name": "LEKÁREŇ NA ONDAVSKEJ",
            "address": "Ondavská 1559/4, 04011 Košice",
            "latitude": "48.7192447",
            "longitude": "21.2338158",
            "category": "pharmacy"
        },
        {
            "name": "MULTIPHARM, s.r.o.",
            "address": "Toryská 275/1, 04011 Košice",
            "latitude": "48.718200",
            "longitude": "21.219047",
            "category": "pharmacy"
        },
        {
            "name": "SyndiPharma spol.sr.o.",
            "address": "Trieda SNP 1, 04011 Košice",
            "latitude": "48.7192447",
            "longitude": "21.2338158",
            "category": "pharmacy"
        },
        {
            "name": "Sambuccus-s.r.o.",
            "address": "Muškátová 518/7, 04011 Košice",
            "latitude": "48.7149692",
            "longitude": "21.237249",
            "category": "pharmacy"
        },
        {
            "name": "Mgr.Cecília Kupčíková, lekáreň HELIANT",
            "address": "Hronská 14, 04011 Košice",
            "latitude": "48.7192447",
            "longitude": "21.2338158",
            "category": "pharmacy"
        },
        {
            "name": "LEKÁREŇ Remedia",
            "address": "Pražská 502/4, 04011 Košice",
            "latitude": "48.7149692",
            "longitude": "21.237249",
            "category": "pharmacy"
        },
        {
            "name": "LEKÁREŇ Prima Pharma",
            "address": "Gudernova 292/3,  04011 Košice",
            "latitude": "48.7070118",
            "longitude": "21.2334724",
            "category": "pharmacy"
        },
        {
            "name": "LEKÁREŇ Dr.Max",
            "address": "Popradská 2315/92, 04011 Košice",
            "latitude": "48.7017157",
            "longitude": "21.2305971",
            "category": "pharmacy"
        },
        {
            "name": "MIESTNY ÚRAD KOŠICE-ZÁPAD",
            "address": "Trieda SNP 39, 04011 Košice",
            "latitude": "48.7144616",
            "longitude": "21.2361555",
            "category": "bureau"
        },
        {
            "name": "Átrium Klub",
            "address": "Zuzkin park 4, 04011 Košice",
            "latitude": "48.7188426",
            "longitude": "21.2374395",
            "category": "bureau"
        },
        {
            "name": "Administratívna budova",
            "address": "Hellova 2, 04011 Košice",
            "latitude": "48.6990085",
            "longitude": "21.2319249",
            "category": "bureau"
        },
        {
            "name": "Multifunkčný objekt-Zariadenie opatrovateľskej služby, Denné centrum pre seniorov a materské centrum",
            "address": "Laborecká 2, 04011 Košice",
            "latitude": "48.7163541",
            "longitude": "21.2353822",
            "category": "bureau"
        },
        {
            "name": "Polícia SR - Obvodné oddelenie PZ Košice-Západ",
            "address": "Považská 472/38, 04011 Košice",
            "latitude": "48.7106975",
            "longitude": "21.2316709",
            "category": "police"
        },
        {
            "name": "Mestská polícia",
            "address": "Trieda SNP, 04011 Košice",
            "latitude": "48.7145509",
            "longitude": "21.236908",
            "category": "police"
        },
        {
            "name": "Poliklinika Terasa",
            "address": "Toryská 275/1, 04011 Košice",
            "latitude": "48.713579",
            "longitude": "21.2309295",
            "category": "hospital"
        },
        {
            "name": "Fakultná nemocnica L.Pasteura Košice-pracovisko Trieda SNP 1",
            "address": "Trieda SNP 457/1, 04011 Košice",
            "latitude": "48.723856",
            "longitude": "21.2366408",
            "category": "hospital"
        },
        {
            "name": "Medicínske Centrum Košice spol. s.r.o.",
            "address": "Brigádnicka 2, 04011 Košice",
            "latitude": "48.715329",
            "longitude": "21.229962",
            "category": "hospital"
        },
        {
            "name": "Ergomed Poliklinika s.r.o.-ADOS",
            "address": "Moldavská cesta 21, 04011 Košice",
            "latitude": "48.7076517",
            "longitude": "21.2426563",
            "category": "hospital"
        }
    ]
}